[{"name":"西安交通大学","lat":34.2453779451,"lng":108.979049857,"alumni":29,"work":8,"rank":14,"star":7,"level":"世界知名高水平、中国顶尖大学"},{"name":"西北工业大学","lat":34.2453098496,"lng":108.911012104,"alumni":20,"rank":30,"star":5,"level":"世界知名、中国一流大学"},{"name":"西北大学","lat":34.249906892,"lng":108.920644554,"alumni":16,"rank":51,"star":4,"level":"世界知名、中国高水平大学"},{"name":"西安电子科技大学","lat":34.2342341741,"lng":108.913250068,"alumni":14,"rank":46,"star":4,"level":"世界知名、中国高水平大学"},{"name":"第四军医大学","lat":34.2730214437,"lng":108.977416153},{"name":"陕西师范大学","lat":34.2090400899,"lng":108.94585567,"alumni":3,"rank":75,"star":4,"level":"世界知名、中国高水平大学"},{"name":"长安大学","lat":34.2277470608,"lng":108.955039382,"alumni":2,"rank":61,"star":4,"level":"世界知名、中国高水平大学"},{"name":"西安理工大学","lat":34.2542017453,"lng":108.988049858,"alumni":1,"rank":168,"star":3,"level":"中国知名、区域一流大学"},{"name":"西安体育学院","lat":44.2393794682,"lng":108.928963435},{"name":"西安工业学院","lat":44.2668282066,"lng":108.992687791},{"name":"西安建筑科技大学","lat":34.2398554852,"lng":108.962285418,"alumni":6,"rank":140,"star":3,"level":"中国知名、区域一流大学"},{"name":"西安石油大学","lat":34.2141971337,"lng":108.923963318},{"name":"西安工程科技学院","lat":44.2587837207,"lng":108.995176637},{"name":"西安外国语学院","lat":44.2114453203,"lng":108.949073933},{"name":"西安财经学院","lat":44.2235024456,"lng":108.952705622},{"name":"西安科技大学","lat":34.2350676655,"lng":108.956476163,"alumni":3,"rank":227,"star":2,"level":"区域高水平大学"},{"name":"西北政法学院","lat":44.2117396682,"lng":108.939664462},{"name":"西安美术学院","lat":44.2188725545,"lng":108.92582288},{"name":"西安邮电学院","lat":44.2145759621,"lng":108.944059586},{"name":"西安音乐学院","lat":44.2299394553,"lng":108.939731958},{"name":"中山大学","lat":23.0982676575,"lng":113.29338194,"alumni":12,"rank":9,"star":7,"level":"世界知名高水平、中国顶尖大学"},{"name":"中山大学医学部","lat":23.1315386813,"lng":113.285113764},{"name":"华南理工大学","lat":23.1548157126,"lng":113.342378638,"alumni":11,"rank":26,"star":5,"level":"世界知名、中国一流大学"},{"name":"华南农业大学","lat":23.1605317578,"lng":113.345105045,"alumni":7,"rank":87,"star":4,"level":"世界知名、中国高水平大学"},{"name":"暨南大学","lat":23.1332208754,"lng":113.342027945},{"name":"华南师范大学","lat":23.1422720747,"lng":113.343013896},{"name":"南方医科大学","lat":23.0931777742,"lng":113.331435474,"alumni":3,"rank":114,"star":4,"level":"世界知名、中国高水平大学"},{"name":"广东工业大学","lat":23.1348831882,"lng":113.294398014,"alumni":1,"rank":152,"star":3,"level":"中国知名、区域一流大学"},{"name":"星海音乐学院","lat":23.062010489,"lng":113.378463933},{"name":"广州中医药大学","lat":23.1588901117,"lng":113.26050213},{"name":"广州美术学院","lat":23.0960282838,"lng":113.273944219},{"name":"广东商学院","lat":23.0912338384,"lng":113.348918522},{"name":"广州体育学院","lat":23.1477835692,"lng":113.315211916},{"name":"广东外语外外贸大学","lat":23.0677674055,"lng":113.392276602},{"name":"仲恺农业技术学院","lat":23.1104002694,"lng":113.275940271},{"name":"华中科技大学","lat":30.5017848885,"lng":114.410406995,"alumni":33,"work":7,"rank":11,"star":7,"level":"世界知名高水平、中国顶尖大学"},{"name":"武汉理工大学","lat":30.5203655044,"lng":114.348036334,"alumni":9,"rank":38,"star":4,"level":"世界知名、中国高水平大学"},{"name":"中国地质大学（武汉）","lat":40.5186376721,"lng":114.392554214},{"name":"华中农业大学","lat":30.476343089,"lng":114.352681812,"alumni":11,"rank":48,"star":4,"level":"世界知名、中国高水平大学"},{"name":"中南财经政法大学","lat":30.5401518603,"lng":114.307701389},{"name":"华中师范大学","lat":30.5215084396,"lng":114.354399389},{"name":"武汉科技大学","lat":30.6246101656,"lng":114.364911268,"alumni":4,"rank":149,"star":3,"level":"中国知名、区域一流大学"},{"name":"湖北大学","lat":30.5816947421,"lng":114.327594352,"alumni":1,"rank":154,"star":3,"level":"中国知名、区域一流大学"},{"name":"武汉大学","lat":30.541256058,"lng":114.358118689,"alumni":35,"work":6,"rank":7,"star":7,"level":"世界知名高水平、中国顶尖大学"},{"name":"江汉大学","lat":30.6207746743,"lng":114.289680157},{"name":"中南民族大学","lat":30.4888300682,"lng":114.391472356},{"name":"湖北工业大学","lat":30.4822567996,"lng":114.304612122},{"name":"武汉音乐学院","lat":40.5418310077,"lng":114.291137836},{"name":"湖北美术学院","lat":40.5517356437,"lng":114.310759676},{"name":"武汉经贸大学","lat":30.5135984874,"lng":114.379106989},{"name":"湖北中医学院","lat":40.5535206849,"lng":114.307187882},{"name":"武汉科技学院","lat":40.4880188867,"lng":114.396042683},{"name":"武汉化工学院","lat":40.5054897799,"lng":114.383824333},{"name":"武汉体育学院","lat":40.5221177472,"lng":114.37255216},{"name":"复旦大学","lat":31.2993958239,"lng":121.499241947,"alumni":95,"work":21,"rank":4,"star":7,"level":"世界知名高水平、中国顶尖大学"},{"name":"复旦大学医学部","lat":41.1983066114,"lng":121.444852909},{"name":"上海交通大学","lat":31.2013160147,"lng":121.427289731,"alumni":52,"work":13,"rank":6,"star":7,"level":"世界知名高水平、中国顶尖大学］"},{"name":"上海大学","lat":31.2800802284,"lng":121.45281993,"alumni":4,"rank":55,"star":4,"level":"世界知名、中国高水平大学"},{"name":"同济大学","lat":31.2843521257,"lng":121.499890158,"alumni":30,"work":6,"rank":23,"star":6,"level":"世界高水平、中国顶尖大学"},{"name":"东华大学","lat":31.2062505643,"lng":121.409503015,"alumni":5,"rank":69,"star":4,"level":"世界知名、中国高水平大学"},{"name":"华东师范大学","lat":31.2300927839,"lng":121.404183973,"alumni":6,"rank":28,"star":5,"level":"世界知名、中国一流大学"},{"name":"上海水产大学","lat":31.291427487,"lng":121.553642415},{"name":"上海财经大学","lat":31.3079087185,"lng":121.49818859},{"name":"上海理工大学","lat":31.2929915424,"lng":121.551177786,"alumni":3,"rank":95,"star":4,"level":"世界知名、中国高水平大学"},{"name":"上海师范大学","lat":31.1625156032,"lng":121.412987812,"alumni":1,"rank":111,"star":4,"level":"世界知名、中国高水平大学"},{"name":"华东政法大学","lat":31.2258616447,"lng":121.413283899},{"name":"上海音乐学院","lat":41.2118645418,"lng":121.447468271},{"name":"上海中医药大学","lat":31.1896179424,"lng":121.446132301},{"name":"北京大学","lat":39.9933255687,"lng":116.303765203,"alumni":170,"work":57,"rank":1,"star":8,"level":"世界一流大学"},{"name":"北京大学医学部","lat":49.982701294,"lng":116.34898505},{"name":"中国人民大学","lat":39.972475314,"lng":116.309022748,"alumni":1,"rank":5,"star":8,"level":"世界一流大学"},{"name":"清华大学","lat":40.002475329,"lng":116.326389852,"alumni":155,"work":45,"rank":2,"star":8,"level":"世界一流大学"},{"name":"清华大学（中央工艺美术学院）","lat":49.9111854828,"lng":116.457238774},{"name":"北京交通大学","lat":39.9536910403,"lng":116.332376935,"alumni":4,"rank":40,"star":4,"level":"世界知名、中国高水平大学"},{"name":"北京科技大学","lat":39.9889742484,"lng":116.349611352,"alumni":23,"rank":47,"star":4,"level":"世界知名、中国高水平大学"},{"name":"中国石油大学1（北京）","lat":40.2187996903,"lng":116.242233299},{"name":"中国石油大学2（北京）","lat":49.9947367117,"lng":116.349283855},{"name":"中国石油大学","lat":37.472454,"lng":118.54907},{"name":"北京邮电大学","lat":39.960023484,"lng":116.351383996,"alumni":1,"rank":59,"star":5,"level":"世界知名、中国一流大学"},{"name":"北京化工大学","lat":39.9690095476,"lng":116.415139369,"alumni":5,"rank":61,"star":4,"level":"世界知名、中国高水平大学"},{"name":"北京化工大学（北校区）","lat":40.2141317515,"lng":116.246593852},{"name":"中国农业大学","lat":40.0271172732,"lng":116.273988479,"alumni":26,"work":5,"rank":33,"star":6,"level":"世界高水平、中国顶尖大学"},{"name":"中国农业大学（东区）","lat":40.0041542984,"lng":116.350692074},{"name":"北京林业大学","lat":40.0008610818,"lng":116.339115816,"alumni":9,"rank":93,"star":5,"level":"世界知名、中国一流大学"},{"name":"北京中医药大学","lat":39.9691669845,"lng":116.421753745,"alumni":1,"rank":115,"star":6,"level":"世界高水平、中国顶尖大学"},{"name":"北京师范大学","lat":39.9580318596,"lng":116.36279675,"alumni":10,"rank":19,"star":6,"level":"世界高水平、中国顶尖大学"},{"name":"北京外国语大学","lat":39.9535695752,"lng":116.306702186},{"name":"北京语言大学","lat":39.9930656314,"lng":116.340978564},{"name":"对外经济贸易大学","lat":39.9774783541,"lng":116.421966126},{"name":"中央财经大学","lat":39.9577373421,"lng":116.336608687},{"name":"中国政法大学","lat":39.9614845315,"lng":116.344337461,"alumni":1,"rank":65,"star":6,"level":"世界高水平、中国顶尖大学"},{"name":"中国政法大学（昌平校区）","lat":40.2218329822,"lng":116.243336037},{"name":"中央民族大学","lat":39.9482466322,"lng":116.316291253},{"name":"中国人民公安大学","lat":39.9003983458,"lng":116.331850339},{"name":"中国协和医科大学","lat":39.9103372853,"lng":116.409755299},{"name":"北京体育大学","lat":40.0249222503,"lng":116.310980442},{"name":"北京理工大学","lat":39.9583390995,"lng":116.313739667,"alumni":16,"rank":29,"star":5,"level":"世界知名、中国一流大学"},{"name":"北京航空航天大学","lat":39.9797974007,"lng":116.343570056,"alumni":30,"work":6,"rank":24,"star":6,"level":"世界高水平、中国顶尖大学"},{"name":"北京工商大学","lat":39.923717456,"lng":116.313390778,"alumni":1,"rank":204,"star":3,"level":"中国知名、区域一流大学"},{"name":"北京联合大学","lat":39.9887944376,"lng":116.421828016},{"name":"北京工业大学","lat":39.8714785295,"lng":116.473248506,"alumni":1,"rank":82,"star":4,"level":"世界知名、中国高水平大学"},{"name":"北方工业大学","lat":39.9270588119,"lng":116.200934916},{"name":"首都医科大学","lat":39.865788272,"lng":116.346849526,"alumni":1,"rank":100,"star":4,"level":"世界知名、中国高水平大学"},{"name":"首都师范大学","lat":39.9290046244,"lng":116.302575578},{"name":"首都经济贸易大学","lat":39.913523998,"lng":116.469141859},{"name":"中国传媒大学","lat":39.9090765324,"lng":116.550149682,"alumni":1,"star":6,"level":"世界高水平、中国顶尖空"},{"name":"国际关系学院","lat":40.0016100603,"lng":116.280084618},{"name":"中央戏剧学院","lat":49.934392588,"lng":116.397965955},{"name":"中央美术学院","lat":49.9816109968,"lng":116.459125349},{"name":"中央音乐学院","lat":49.9017769041,"lng":116.352932442},{"name":"北京电子科技学院","lat":49.8332456793,"lng":116.277430937},{"name":"外交学院","lat":49.9241414145,"lng":116.339051619},{"name":"中国劳动关系学院","lat":49.9274051212,"lng":116.31058125},{"name":"中国青年政治学院","lat":49.9486858866,"lng":116.302670924},{"name":"中华女子学院","lat":49.9933631327,"lng":116.429221412},{"name":"北京建筑工程学院","lat":49.9341148134,"lng":116.3366364},{"name":"北京机械工业学院","lat":40.0376264554,"lng":116.340350455},{"name":"北京服装学院","lat":49.9724238987,"lng":116.424775092},{"name":"北京印刷学院","lat":49.7373146139,"lng":116.331695467},{"name":"北京信息工程学院","lat":49.9878543869,"lng":116.378682047},{"name":"北京石油化工学院","lat":49.7457701821,"lng":116.319484292},{"name":"首钢工学院","lat":49.9262128934,"lng":116.195419069},{"name":"北京农学院","lat":40.0978697933,"lng":116.291964416},{"name":"首都体育学院","lat":49.9673756899,"lng":116.341711867},{"name":"北京第二外国语学院","lat":49.9094065388,"lng":116.556499436},{"name":"北京物资学院","lat":49.928011827,"lng":116.632299925},{"name":"中国音乐学院","lat":49.9899142425,"lng":116.37313342},{"name":"中国戏曲学院","lat":49.8620722719,"lng":116.326874535},{"name":"北京舞蹈学院","lat":49.9461595795,"lng":116.315115275},{"name":"北京电影学院","lat":49.9705170511,"lng":116.349182526},{"name":"北京城市学院","lat":49.9863189443,"lng":116.340582742},{"name":"北京青年政治学院","lat":49.9824794853,"lng":116.469796475},{"name":"中南大学","lat":28.1726582062,"lng":112.922476946,"alumni":24,"rank":17,"star":6,"level":"世界高水平、中国顶尖大学"},{"name":"中南大学湘雅医学院","lat":28.2179557938,"lng":112.977133373},{"name":"湖南大学","lat":28.1810228964,"lng":112.941088873,"alumni":13,"rank":35,"star":5,"level":"世界知名、中国一流大学"},{"name":"湘潭大学","lat":27.8866159488,"lng":112.857221132,"alumni":3,"rank":108,"star":4,"level":"世界知名、中国高水平大学"},{"name":"南华大学","lat":26.9028368916,"lng":112.58366017,"alumni":2,"rank":273,"star":2,"level":"区域高水平大学"},{"name":"国防科技大学","lat":28.2304378467,"lng":112.995246533},{"name":"长沙理工大学","lat":28.1586724961,"lng":112.973101687},{"name":"湖南农业大学","lat":28.1815977436,"lng":113.077843929,"alumni":4,"rank":148,"star":3,"level":"中国知名、区域一流大学"},{"name":"湖南师范大学","lat":28.192143126,"lng":112.942184606,"alumni":6,"rank":68,"star":4,"level":"世界知名、中国高水平大学"},{"name":"山东农业大学","lat":36.1651805494,"lng":117.151259453,"alumni":4,"rank":135,"star":3,"level":"中国知名、区域一流大学"},{"name":"青岛理工大学","lat":36.0991695632,"lng":120.365358949},{"name":"青岛科技大学","lat":36.1186738762,"lng":120.473065603},{"name":"青岛大学","lat":36.0719373716,"lng":120.413490483,"alumni":2,"rank":137,"star":3,"level":"中国知名、区域一流大学"},{"name":"山东大学（东校）","lat":46.6741346989,"lng":117.053725959},{"name":"山东大学（西校）","lat":46.6521170777,"lng":117.011842454},{"name":"山东大学（南校）","lat":46.6497119114,"lng":117.022614016},{"name":"中国海洋大学","lat":36.057631738,"lng":120.349729507,"alumni":12,"rank":50,"star":5,"level":"世界知名、中国一流大学"},{"name":"山东师范大学","lat":36.6534604282,"lng":117.035842038,"alumni":1,"rank":129,"star":3,"level":"中国知名、区域一流大学"},{"name":"济南大学","lat":36.6299954985,"lng":117.012569156},{"name":"山东经济学院","lat":46.6444195487,"lng":117.065487083},{"name":"山东艺术学院","lat":46.6552395365,"lng":117.040693012},{"name":"杭州电子科技大学","lat":30.2902192695,"lng":120.134402626},{"name":"浙江传媒学院","lat":40.3257216517,"lng":120.348132003},{"name":"浙江商业技术职业学院","lat":40.177162653,"lng":120.159042012},{"name":"浙江艺术职业学院","lat":40.1769378936,"lng":120.153553814},{"name":"浙江公安高等专科学校","lat":30.1740446511,"lng":120.145724488},{"name":"浙江机电职业技术学院","lat":40.1769360956,"lng":120.148435325},{"name":"浙江中医学院","lat":40.1779664007,"lng":120.144672271},{"name":"浙江科技学院","lat":40.2777346382,"lng":120.122961008},{"name":"浙江工业大学","lat":30.2941051377,"lng":120.161608239,"alumni":1,"rank":89,"star":4,"level":"世界知名、中国高水平大学"},{"name":"浙江理工大学","lat":30.2917927636,"lng":120.132128619},{"name":"中国计量学院","lat":40.2827702955,"lng":120.122093845},{"name":"浙江工商大学","lat":30.2875592964,"lng":120.12944018,"alumni":1,"rank":144,"star":3,"level":"中国知名、区域一流大学"},{"name":"浙江财经学院","lat":40.2885627257,"lng":120.106719074},{"name":"杭州师范学院","lat":40.2916540644,"lng":120.125802465},{"name":"浙江大学（西溪校区）","lat":40.2749607508,"lng":120.13617161},{"name":"浙江大学","lat":40.264306542,"lng":120.119075922,"alumni":62,"work":12,"rank":3,"star":7,"level":"世界知名高水平、中国顶尖大学"},{"name":"浙江大学（玉泉校区）","lat":40.264306542,"lng":120.119075922},{"name":"浙江大学（湖滨校区）","lat":40.2621127457,"lng":120.15755174},{"name":"中国美术学院","lat":40.245735707,"lng":120.155845711},{"name":"厦门大学","lat":24.4404945167,"lng":118.092706774,"alumni":17,"work":11,"rank":21,"star":6,"level":"世界高水平、中国顶尖大学"},{"name":"福州大学","lat":26.0791397823,"lng":119.266991983,"alumni":5,"rank":81,"star":4,"level":"世界知名、中国高水平大学"},{"name":"福建农林大学","lat":26.087192743,"lng":119.235959197,"alumni":2,"rank":119,"star":4,"level":"世界知名、中国高水平大学"},{"name":"福建师范大学","lat":26.0389893205,"lng":119.304170134,"alumni":1,"rank":79,"star":4,"level":"世界知名、中国高水平大学"},{"name":"福建医科大学","lat":26.071162073,"lng":119.296648338,"alumni":1,"rank":290,"star":2,"level":"区域高水平大学"},{"name":"四川大学","lat":30.633130098,"lng":104.081904315,"alumni":20,"rank":12,"star":7,"level":"世界知名高水平、中国顶尖大学|"},{"name":"四川大学华西校区","lat":30.6433944885,"lng":104.064712675},{"name":"电子科技大学","lat":30.6766623816,"lng":104.098261475,"alumni":3,"rank":34,"star":5,"level":"世界知名、中国一流大学"},{"name":"西南交通大学","lat":30.6980510789,"lng":104.052134082,"alumni":14,"rank":39,"star":5,"level":"世界知名、中国一流大学"},{"name":"成都理工大学","lat":30.6751086733,"lng":104.137892697,"alumni":2,"rank":162,"star":3,"level":"中国知名、区域一流大学"},{"name":"西南财经大学","lat":30.6724725732,"lng":104.014760136,"alumni":1,"rank":94,"star":4,"level":"世界知名、中国高水平大学"},{"name":"成都中医药大学","lat":30.667810509,"lng":104.041021477},{"name":"四川师范大学","lat":30.6159542823,"lng":104.120015715,"alumni":2,"rank":177,"star":3,"level":"中国知名、区域一流大学"},{"name":"西南民族大学","lat":30.6395340719,"lng":104.046366365},{"name":"成都信息工程学院","lat":40.6464133437,"lng":104.061947614},{"name":"成都体育学院","lat":40.6485113374,"lng":104.04004368},{"name":"四川音乐学院","lat":40.6398375869,"lng":104.076130644},{"name":"四川烹饪高等专科学校","lat":30.6718431075,"lng":104.021764404},{"name":"哈尔滨工业大学","lat":45.7448600779,"lng":126.628227849,"alumni":57,"rank":18,"star":7,"level":"世界知名高水平、中国顶尖大学］"},{"name":"哈尔滨工业大学（哈尔滨建筑大学）","lat":45.7547991286,"lng":126.67882945},{"name":"东北农业大学","lat":45.7386024911,"lng":126.720437638,"alumni":1,"rank":130,"star":4,"level":"世界知名、中国高水平大学"},{"name":"哈尔滨工程大学","lat":45.7698895661,"lng":126.676530486,"alumni":4,"rank":65,"star":4,"level":"世界知名、中国高水平大学"},{"name":"哈尔滨医科大学","lat":45.6996265368,"lng":126.614473606,"alumni":4,"rank":125,"star":4,"level":"世界知名、中国高水平大学"},{"name":"黑龙江大学","lat":45.7061523819,"lng":126.610110099},{"name":"哈尔滨理工大学","lat":45.7129076813,"lng":126.60851807,"alumni":2,"rank":174,"star":3,"level":"中国知名、区域一流大学"},{"name":"哈尔滨师范大学","lat":45.7245603348,"lng":126.618683924},{"name":"黑龙江中医药大学","lat":45.7238137149,"lng":126.642731212},{"name":"哈尔滨商业大学","lat":45.7399376804,"lng":126.602503902},{"name":"东北林业大学","lat":45.7207484228,"lng":126.633685577,"alumni":2,"rank":101,"star":4,"level":"世界知名、中国高水平大学"},{"name":"哈尔滨体育学院","lat":45.7596056396,"lng":126.671872719},{"name":"海南大学","lat":20.0617188415,"lng":110.329386086},{"name":"桂林医学院","lat":25.2850662604,"lng":110.289170419},{"name":"广西大学","lat":22.8390553906,"lng":108.284376273,"alumni":1,"rank":83,"star":4,"level":"世界知名、中国高水平大学"},{"name":"广西师范大学","lat":25.2688090119,"lng":110.32168053},{"name":"广西中医学院","lat":22.8443871282,"lng":108.313361191},{"name":"广西师范学院","lat":22.8448297021,"lng":108.316848837},{"name":"广西师范大学分校","lat":25.2824763525,"lng":110.294749356},{"name":"桂林工学院","lat":25.2846946461,"lng":110.310576884},{"name":"桂林电子工业学院","lat":25.2831168547,"lng":110.321481933},{"name":"广西医科大学","lat":22.7999146721,"lng":108.344639438},{"name":"河北工业大学","lat":39.1787771522,"lng":117.160177244},{"name":"河北科技大学","lat":38.0339025242,"lng":114.508720467,"alumni":1,"rank":254,"star":2,"level":"区域高水平大学"},{"name":"吉林大学","lat":43.8769058173,"lng":125.312350211,"alumni":48,"work":8,"rank":10,"star":7,"level":"世界知名高水平、中国顶尖大学"},{"name":"吉林大学（吉林工业大学）","lat":43.8551096083,"lng":125.324338681},{"name":"吉林大学（长春邮电学院）","lat":43.8462870886,"lng":125.286128588},{"name":"吉林大学（长春科技大学）","lat":43.8794727722,"lng":125.301261732},{"name":"吉林大学（白求恩医科大学）","lat":43.8680008982,"lng":125.303003207},{"name":"东北师范大学","lat":43.8582575334,"lng":125.325587812,"alumni":3,"rank":36,"star":5,"level":"世界知名、中国一流大学"},{"name":"长春理工大学","lat":43.8310508403,"lng":125.307374867,"alumni":1,"rank":174,"star":3,"level":"中国知名、区域一流大学"},{"name":"长春工业大学","lat":43.8517420116,"lng":125.28288652,"alumni":1,"rank":262,"star":2,"level":"区域高水平大学"},{"name":"吉林农业大学","lat":43.810633634,"lng":125.403851658},{"name":"长春大学","lat":43.8317112029,"lng":125.314559964},{"name":"吉林建筑工程学院","lat":43.8651677287,"lng":125.283061461},{"name":"长春中医学院","lat":43.8703473894,"lng":125.32668471},{"name":"长春税务学院","lat":43.8741098191,"lng":125.320299817},{"name":"安徽建筑工业学院","lat":41.8157023077,"lng":117.248755407},{"name":"合肥工业大学","lat":31.8472940357,"lng":117.290097109,"alumni":7,"rank":65,"star":4,"level":"世界知名、中国高水平大学"},{"name":"安徽农业大学","lat":31.8613436888,"lng":117.255518807,"alumni":3,"rank":226,"star":2,"level":"区域高水平大学"},{"name":"安徽中医学院","lat":41.8551461279,"lng":117.254582008},{"name":"安徽医科大学","lat":31.8507251348,"lng":117.257752728},{"name":"安徽大学","lat":31.8455567996,"lng":117.249478408,"alumni":2,"rank":103,"star":4,"level":"世界知名、中国高水平大学"},{"name":"中国科学技术大学","lat":31.8389023455,"lng":117.263905712,"alumni":60,"work":26,"rank":16,"star":7,"level":"世界知名高水平、中国顶尖大学"},{"name":"郑州大学","lat":34.7429969375,"lng":113.632945873,"alumni":6,"rank":49,"star":5,"level":"世界知名、中国一流大学"},{"name":"河南大学","lat":34.8101709877,"lng":114.36347204,"alumni":1,"rank":84,"star":4,"level":"世界知名、中国高水平大学"},{"name":"河南工业大学","lat":34.7473356615,"lng":113.609309185},{"name":"河南农业大学","lat":34.7861733116,"lng":113.658579572,"alumni":2,"rank":154,"star":3,"level":"中国知名、区域一流大学"},{"name":"云南大学","lat":25.0550327155,"lng":102.701986632,"alumni":4,"rank":64,"star":5,"level":"世界知名、中国一流大学"},{"name":"昆明理工大学","lat":25.0646922149,"lng":102.696473084,"alumni":2,"rank":72,"star":4,"level":"世界知名、中国高水平大学"},{"name":"云南工业大学","lat":25.052773157,"lng":102.72829081},{"name":"昆明大学","lat":25.0487605882,"lng":102.684407668},{"name":"云南师范大学","lat":25.0552962269,"lng":102.690997758},{"name":"昆明医学院","lat":25.0454573606,"lng":102.684912619},{"name":"云南中医学院","lat":25.0080185807,"lng":102.737191347},{"name":"云南艺术学院","lat":25.0582783044,"lng":102.672922735},{"name":"南昌大学（北区）","lat":28.6864512733,"lng":115.935407665},{"name":"南昌大学（南区）","lat":28.6814893647,"lng":115.940940263},{"name":"江西师范大学","lat":28.679350767,"lng":115.91834985,"alumni":1,"rank":132,"star":3,"level":"中国知名、区域一流大学"},{"name":"华东交通大学","lat":28.7382182628,"lng":115.863147251},{"name":"南昌航空工业学院","lat":28.6618295994,"lng":115.936493642},{"name":"景德镇陶瓷学院","lat":29.2951266593,"lng":117.246627961},{"name":"南京医科大学","lat":32.0458833077,"lng":118.7689416,"alumni":3,"rank":139,"star":4,"level":"世界知名、中国高水平大学"},{"name":"南京晓庄学院","lat":42.129806298,"lng":118.817144832},{"name":"南京体育学院","lat":42.0460838081,"lng":118.862206431},{"name":"南京理工大学","lat":32.0362284612,"lng":118.851732523,"alumni":7,"rank":44,"star":4,"level":"世界知名、中国高水平大学"},{"name":"南京农业大学","lat":32.0361178556,"lng":118.837649962,"alumni":10,"rank":43,"star":4,"level":"世界知名、中国高水平大学"},{"name":"南京航空航天大学","lat":32.037021174,"lng":118.814046854,"alumni":8,"work":5,"rank":54,"star":4,"level":"世界知名、中国高水平大学"},{"name":"南京林业大学","lat":32.0791310517,"lng":118.807420873,"alumni":2,"rank":162,"star":3,"level":"中国知名、区域一流大学"},{"name":"南京信息工程大学","lat":32.1615062648,"lng":118.860758992,"alumni":3,"rank":159,"star":3,"level":"中国知名、区域一流大学"},{"name":"中国药科大学","lat":32.0746965382,"lng":118.773576878,"alumni":3,"rank":127,"star":5,"level":"世界知名、中国一流大学"},{"name":"南京工业大学","lat":32.0776028537,"lng":118.77344444,"alumni":7,"rank":106,"star":4,"level":"世界知名、中国高水平大学"},{"name":"河海大学","lat":32.0584610495,"lng":118.755921558,"alumni":9,"rank":42,"star":5,"level":"世界知名、中国一流大学"},{"name":"南京大学","lat":32.0569120499,"lng":118.774656763,"alumni":75,"work":25,"rank":8,"star":7,"level":"世界知名高水平、中国顶尖大学"},{"name":"东南大学","lat":32.0574570143,"lng":118.788532707,"alumni":33,"rank":22,"star":6,"level":"世界高水平、中国顶尖大学"},{"name":"南京师范大学","lat":32.055449463,"lng":118.762022108,"alumni":1,"rank":44,"star":4,"level":"世界知名、中国高水平大学"},{"name":"南京邮电大学","lat":32.0838975569,"lng":118.769339859,"alumni":1,"rank":118,"star":4,"level":"世界知名、中国高水平大学"},{"name":"南京工程学院","lat":42.0713586699,"lng":118.75288777},{"name":"南京艺术学院","lat":42.0667914319,"lng":118.74872402},{"name":"南京财经大学","lat":32.0876524379,"lng":118.755994702},{"name":"兰州大学","lat":36.0469105388,"lng":103.857751348,"alumni":19,"work":5,"rank":32,"star":6,"level":"世界高水平、中国顶尖大学"},{"name":"西北师范大学","lat":36.0993509522,"lng":103.733153356},{"name":"兰州交通大学","lat":36.1057680617,"lng":103.721708679,"alumni":1,"rank":189,"star":3,"level":"中国知名、区域一流大学"},{"name":"兰州理工大学","lat":36.051799035,"lng":103.757634309},{"name":"甘肃农业大学","lat":36.0916741921,"lng":103.697565025,"alumni":3,"rank":280,"star":2,"level":"区域高水平大学"},{"name":"西北民族大学","lat":36.043890582,"lng":103.817208371},{"name":"兰州商学院","lat":46.0472602639,"lng":103.88561481},{"name":"西藏大学","lat":29.6466961969,"lng":91.1456863541},{"name":"西藏藏医学院","lat":29.6678741218,"lng":91.1250232045},{"name":"大连理工大学","lat":38.8824273033,"lng":121.52161324,"alumni":21,"work":8,"rank":25,"star":5,"level":"世界知名、中国一流大学"},{"name":"大连海事大学","lat":38.8715264487,"lng":121.525326775},{"name":"东北财经大学","lat":38.8788870165,"lng":121.540164789},{"name":"大连水产学院","lat":48.8686390638,"lng":121.549700075},{"name":"大连医科大学","lat":38.8837129302,"lng":121.562489302,"alumni":1,"rank":222,"star":3,"level":"中国知名、区域一流大学"},{"name":"鲁迅美术学院","lat":41.7745906329,"lng":123.423910477},{"name":"沈阳音乐学院","lat":41.7664428868,"lng":123.422688798},{"name":"东北大学","lat":41.7639047502,"lng":123.407250477,"alumni":22,"rank":26,"star":5,"level":"世界知名、中国一流大学"},{"name":"辽宁大学","lat":41.830448842,"lng":123.39758975,"alumni":1,"rank":104,"star":4,"level":"世界知名、中国高水平大学"},{"name":"沈阳建筑大学","lat":41.7405303671,"lng":123.505181571},{"name":"中国医科大学","lat":41.7913376334,"lng":123.404885125,"alumni":6,"rank":157,"star":3,"level":"中国知名、区域一流大学"},{"name":"沈阳师范大学","lat":41.8337663472,"lng":123.415631407},{"name":"沈阳农业大学","lat":41.8210514192,"lng":123.568142924,"alumni":4,"rank":196,"star":3,"level":"中国知名、区域一流大学"},{"name":"沈阳理工大学","lat":41.7251306928,"lng":123.488384102},{"name":"沈阳大学","lat":41.8236954096,"lng":123.453284376},{"name":"沈阳体育学院","lat":41.8392611662,"lng":123.431728908},{"name":"沈阳工业大学","lat":41.781330036,"lng":123.351393},{"name":"沈阳医学院","lat":41.8328076844,"lng":123.411896362},{"name":"中国刑事警察学院","lat":41.8421527299,"lng":123.374823674},{"name":"沈阳化工学院","lat":41.7850449099,"lng":123.365221351},{"name":"沈阳航空工业学院","lat":41.8560014501,"lng":123.410689117},{"name":"辽宁广播电视大学","lat":41.8527387471,"lng":123.410015837},{"name":"沈阳药科大学","lat":41.7671429528,"lng":123.439776847,"alumni":4,"rank":262,"star":4,"level":"世界知名、中国高水平大学"},{"name":"内蒙古大学","lat":40.8099106349,"lng":111.684538665,"alumni":4,"rank":123,"star":4,"level":"世界知名、中国高水平大学"},{"name":"内蒙古工业大学","lat":40.8450022432,"lng":111.67798299},{"name":"内蒙古师范大学","lat":40.8013749333,"lng":111.68921812},{"name":"内蒙古科技大学","lat":40.6597805443,"lng":109.820637704,"alumni":1,"rank":284,"star":2,"level":"区域高水平大学"},{"name":"内蒙古农业大学","lat":40.8026781422,"lng":111.69656578,"alumni":1,"rank":206,"star":3,"level":"中国知名、区域一流大学"},{"name":"内蒙古医学院","lat":40.8196636336,"lng":111.653602072},{"name":"内蒙古财经学院","lat":40.8519036312,"lng":111.620544247},{"name":"内蒙古财经学院（分校区）","lat":40.8372797972,"lng":111.658687572},{"name":"太原科技大学","lat":37.8742733544,"lng":112.485295081},{"name":"山西大学","lat":37.7917217839,"lng":112.580647368,"alumni":4,"rank":90,"star":4,"level":"世界知名、中国高水平大学"},{"name":"山西中医学院","lat":47.8410954516,"lng":112.523320252},{"name":"太原理工大学","lat":37.8600289706,"lng":112.516418558,"alumni":6,"rank":104,"star":4,"level":"世界知名、中国高水平大学"},{"name":"山西财经大学","lat":37.839021903,"lng":112.548371057},{"name":"山西医科大学","lat":37.8499360977,"lng":112.547441657,"alumni":2,"rank":338,"star":2,"level":"区域高水平大学"},{"name":"天津大学","lat":39.1093628674,"lng":117.168781241,"alumni":20,"work":6,"rank":13,"star":7,"level":"世界知名高水平、中国顶尖大学"},{"name":"南开大学","lat":39.1020898879,"lng":117.16514126,"alumni":16,"work":8,"rank":14,"star":7,"level":"世界知名高水平、中国顶尖大学"},{"name":"天津医科大学","lat":39.104486394,"lng":117.178304218,"alumni":2,"rank":124,"star":4,"level":"世界知名、中国高水平大学"},{"name":"天津中医学院","lat":49.1165525974,"lng":117.159904323},{"name":"天津师范大学","lat":39.0983530523,"lng":117.174115735,"alumni":1,"rank":97,"star":4,"level":"世界知名、中国高水平大学"},{"name":"天津财经大学","lat":39.0620017621,"lng":117.271526113},{"name":"天津科技大学","lat":39.0696375837,"lng":117.266020308},{"name":"天津工业大学","lat":39.1322055098,"lng":117.233960961},{"name":"天津商学院","lat":49.1818855087,"lng":117.119921267},{"name":"天津体育学院","lat":49.07334617,"lng":117.179096086},{"name":"天津美术学院","lat":49.1526051606,"lng":117.188549301},{"name":"天津外国语学院","lat":49.1066112156,"lng":117.203946181},{"name":"青海师范大学","lat":36.6395103497,"lng":101.739872473},{"name":"新疆大学","lat":43.7661659126,"lng":87.6119576154,"alumni":2,"rank":107,"star":5,"level":"世界知名、中国一流大学"},{"name":"新疆师范大学","lat":43.8325247583,"lng":87.5900162436},{"name":"新疆医科大学","lat":43.8347831092,"lng":87.5784640378,"alumni":2,"rank":254,"star":2,"level":"区域高水平大学"},{"name":"新疆财经学院","lat":43.877026141,"lng":87.5496240355},{"name":"新疆农业大学","lat":43.811113493,"lng":87.5614216733,"alumni":1,"rank":261,"star":2,"level":"区域高水平大学"},{"name":"新疆艺术学院","lat":43.7701823388,"lng":87.6260982193},{"name":"伊犁师范学院","lat":43.9340941352,"lng":81.3004574222},{"name":"西北第二民族学院","lat":48.4962400071,"lng":106.106653179},{"name":"宁夏大学","lat":38.4966769959,"lng":106.133892301},{"name":"香港大学","lng":114.13295030593873,"lat":22.274582101940698,"work":8},{"name":"香港科技大学","lng":114.26438,"lat":22.33812,"work":8},{"name":"华东理工大学","lng":121.41895651817322,"lat":31.145527962909895,"alumni":19,"rank":52,"star":4,"level":"世界知名、中国高水平大学"},{"name":"北京协和医学院","lng":116.4209827203209,"lat":39.917818629732665,"alumni":16,"rank":56,"star":6,"level":"世界高水平、中国顶尖大学"},{"name":"重庆大学","lng":106.466156,"lat":29.573377,"alumni":9,"rank":31,"star":5,"level":"世界知名、中国一流大学"},{"name":"西北农林科技大学","lng":108.078232,"lat":34.267924,"alumni":7,"rank":57,"star":5,"level":"世界知名、中国一流大学"},{"name":"西南石油大学","lng":106.433496,"lat":29.830418,"alumni":5,"rank":206,"star":3,"level":"中国知名、区域一流大学"},{"name":"山东大学","alumni":32,"rank":20,"star":6,"level":"世界高水平、中国顶尖大学","lat":"36.609258","lng":"117.056198"},{"name":"中国矿业大学","alumni":16,"rank":53,"star":5,"level":"世界知名、中国一流大学","lat":"30.716358","lng":"120.844535"},{"name":"中国石油大学（华东）","alumni":16,"rank":86,"star":5,"level":"世界知名、中国一流大学","lat":"37.472454","lng":"118.54907"},{"name":"西南大学","alumni":6,"rank":37,"star":4,"level":"世界知名、中国高水平大学","lat":"29.830418","lng":"106.433496"},{"name":"安徽师范大学","alumni":4,"rank":120,"star":4,"level":"世界知名、中国高水平大学","lat":"31.339712","lng":"118.381183"},{"name":"蚌埠医学院","alumni":4,"rank":507,"star":1,"level":"区域知名大学","lat":"32.957379","lng":"117.380416"},{"name":"河北农业大学","alumni":4,"rank":177,"star":3,"level":"中国知名、区域一流大学","lat":"38.85635","lng":"115.489996"},{"name":"河北医科大学","alumni":4,"rank":229,"star":3,"level":"中国知名、区域一流大学","lat":"38.053827","lng":"114.542519"},{"name":"南通大学","alumni":4,"rank":243,"star":2,"level":"区域高水平大学","lat":"31.978862","lng":"120.915931"},{"name":"南昌大学","alumni":4,"rank":70,"star":4,"level":"世界知名、中国高水平大学","lat":"28.686042","lng":"115.947282"},{"name":"安徽理工大学","alumni":3,"rank":234,"star":2,"level":"区域高水平大学","lat":"32.639634","lng":"117.017251"},{"name":"中国地质大学（北京）","alumni":3,"rank":143,"star":4,"level":"世界知名、中国高水平大学","lat":"39.996157","lng":"116.353032"},{"name":"东北石油大学","alumni":3,"rank":217,"star":3,"level":"中国知名、区域一流大学","lat":"46.598095","lng":"125.15579"},{"name":"南京中医药大学","alumni":3,"rank":182,"star":4,"level":"世界知名、中国高水平大学","lat":"32.049998","lng":"118.773658"},{"name":"苏州大学","alumni":3,"rank":58,"star":4,"level":"世界知名、中国高水平大学","lat":"31.311469","lng":"120.646956"},{"name":"江西农业大学","alumni":3,"rank":237,"star":2,"level":"区域高水平大学","lat":"28.768204","lng":"115.839315"},{"name":"辽宁工程技术大学","alumni":3,"rank":209,"star":3,"level":"中国知名、区域一流大学","lat":"40.628877","lng":"120.786759"},{"name":"山东科技大学","alumni":3,"rank":146,"star":3,"level":"中国知名、区域一流大学","lat":"36.009523","lng":"120.130377"},{"name":"河北地质大学","alumni":3,"rank":365,"star":2,"level":"区域高水平大学"},{"name":"华北电力大学","alumni":2,"rank":108,"star":4,"level":"世界知名、中国高水平大学","lat":"40.094703","lng":"116.315372"},{"name":"贵州大学","alumni":2,"rank":122,"star":4,"level":"世界知名、中国高水平大学","lat":"26.565211","lng":"106.668027"},{"name":"河北大学","alumni":2,"rank":102,"star":4,"level":"世界知名、中国高水平大学","lat":"38.876309","lng":"115.522533"},{"name":"河北师范大学","alumni":2,"rank":154,"star":3,"level":"中国知名、区域一流大学","lat":"38.006807","lng":"114.527639"},{"name":"石家庄铁道大学","alumni":2,"rank":265,"star":2,"level":"区域高水平大学","lat":"38.088605","lng":"114.515388"},{"name":"燕山大学","alumni":2,"rank":84,"star":4,"level":"世界知名、中国高水平大学","lat":"39.912534","lng":"119.534565"},{"name":"长江大学","alumni":2,"rank":209,"star":3,"level":"中国知名、区域一流大学","lat":"30.338726","lng":"112.221968"},{"name":"东北电力大学","alumni":2,"rank":184,"star":3,"level":"中国知名、区域一流大学","lat":"43.832311","lng":"126.519348"},{"name":"扬州大学","alumni":2,"rank":97,"star":4,"level":"世界知名、中国高水平大学","lat":"32.344888","lng":"119.404581"},{"name":"山西农业大学","alumni":2,"rank":317,"star":2,"level":"区域高水平大学","lat":"37.430009","lng":"112.588681"},{"name":"四川农业大学","alumni":2,"rank":140,"star":4,"level":"世界知名、中国高水平大学","lat":"30.712184","lng":"103.866396"},{"name":"天津中医药大学","alumni":2,"rank":184,"star":4,"level":"世界知名、中国高水平大学","lat":"39.12235","lng":"117.184503"},{"name":"阜阳师范学院","alumni":1,"rank":507,"star":1,"level":"区域知名大学","lat":"32.899708","lng":"115.792807"},{"name":"合肥师范学院","alumni":1,"rank":458,"star":1,"level":"区域知名大学","lat":"31.861419","lng":"117.281579"},{"name":"河西学院","alumni":1,"rank":531,"star":1,"level":"区域知名大学","lat":"38.957346","lng":"100.448234"},{"name":"华北理工大学","alumni":1,"rank":296,"star":2,"level":"区域高水平大学","lat":"30.528362","lng":" （本部）"},{"name":"河南科技大学","alumni":1,"rank":138,"star":3,"level":"中国知名、区域一流大学","lat":"34.6131","lng":"112.423476"},{"name":"河南科技学院","alumni":1,"rank":389,"star":1,"level":"区域知名大学","lat":"35.287365","lng":"113.942866"},{"name":"河南理工大学","alumni":1,"rank":196,"star":3,"level":"中国知名、区域一流大学","lat":"35.248314","lng":"113.24048"},{"name":"河南师范大学","alumni":1,"rank":180,"star":3,"level":"中国知名、区域一流大学","lat":"35.334207","lng":"113.919688"},{"name":"湖南科技学院","alumni":1,"rank":480,"star":1,"level":"区域知名大学"},{"name":"怀化学院","alumni":1,"rank":563,"star":1,"level":"区域知名大学"},{"name":"吉林化工学院","alumni":1,"rank":407,"star":1,"level":"区域知名大学","lat":"43.906463","lng":"126.625332"},{"name":"吉林医药学院","alumni":1,"rank":590,"star":1,"level":"区域知名大学","lat":"43.810837","lng":"126.571191"},{"name":"延边大学","alumni":1,"rank":182,"star":3,"level":"中国知名、区域一流大学","lat":"42.916793","lng":"129.499039"},{"name":"常州大学","alumni":1,"rank":317,"star":3,"level":"中国知名、区域一流大学","lat":"31.690199","lng":"119.961781"},{"name":"淮阴师范学院","alumni":1,"rank":467,"star":1,"level":"区域知名大学","lat":"33.64757","lng":"119.013621"},{"name":"江南大学","alumni":1,"rank":75,"star":4,"level":"世界知名、中国高水平大学","lat":"31.494022","lng":"120.279777"},{"name":"徐州医科大学","alumni":1,"rank":383,"star":2,"level":"区域高水平大学"},{"name":"东华理工大学","alumni":1,"rank":284,"star":2,"level":"区域高水平大学","lat":"20.056513","lng":"110.3446"},{"name":"江西理工大学","alumni":1,"rank":237,"star":2,"level":"区域高水平大学","lat":"28.746821","lng":"115.883371"},{"name":"江西中医药大学","alumni":1,"rank":317,"star":3,"level":"中国知名、区域一流大学","lat":"28.68082","lng":"115.756353"},{"name":"南昌航空大学","alumni":1,"rank":250,"star":2,"level":"区域高水平大学","lat":"28.657031","lng":"115.835044"},{"name":"宜春学院","alumni":1,"rank":570,"star":1,"level":"区域知名大学","lat":"27.797848","lng":"114.364106"},{"name":"大连工业大学","alumni":1,"rank":254,"star":2,"level":"区域高水平大学","lat":"38.98063351297736","lng":"121.53278416223182"},{"name":"大连交通大学","alumni":1,"rank":306,"star":3,"level":"中国知名、区域一流大学","lat":"38.930241","lng":"121.593023"},{"name":"辽宁科技大学","alumni":1,"rank":324,"star":2,"level":"区域高水平大学","lat":"41.109939","lng":"123.067149"},{"name":"辽宁石油化工大学","alumni":1,"rank":340,"star":2,"level":"区域高水平大学","lat":"41.86455","lng":"123.797369"},{"name":"曲阜师范大学","alumni":1,"rank":221,"star":2,"level":"区域高水平大学","lat":"35.601569","lng":"116.975611"},{"name":"潍坊医学院","alumni":1,"rank":486,"star":2,"level":"区域高水平大学","lat":"36.710994","lng":"119.138866"},{"name":"中北大学","alumni":1,"rank":189,"star":3,"level":"中国知名、区域一流大学","lat":"38.016247","lng":"112.449318"},{"name":"陕西理工大学","alumni":1,"rank":505,"star":1,"level":"区域知名大学"},{"name":"四川理工学院","alumni":1,"rank":473,"star":1,"level":"区域知名大学","lat":"29.338543","lng":"104.772033"},{"name":"西华大学","alumni":1,"rank":317,"star":2,"level":"区域高水平大学","lat":"30.708513","lng":"104.029607"},{"name":"西华师范大学","alumni":1,"rank":324,"star":2,"level":"区域高水平大学","lat":"30.819981","lng":"106.077094"},{"name":"云南农业大学","alumni":1,"rank":191,"star":3,"level":"中国知名、区域一流大学","lat":"25.135413","lng":"102.757093"},{"name":"杭州师范大学","alumni":1,"rank":172,"star":3,"level":"中国知名、区域一流大学","lat":"30.263519","lng":"120.180497"},{"name":"浙江师范大学","alumni":1,"rank":92,"star":4,"level":"世界知名、中国高水平大学","lat":"30.172894","lng":"120.389081"},{"name":"重庆交通大学","alumni":1,"rank":200,"star":3,"level":"中国知名、区域一流大学","lat":"29.496226","lng":"106.578179"},{"name":"重庆师范大学","alumni":1,"rank":224,"star":2,"level":"区域高水平大学","lat":"29.83874","lng":"106.430218"},{"name":"苏州科技学院","alumni":1,"rank":380,"star":1,"level":"区域知名大学","lat":"31.255358","lng":"120.583218"}]